Timestamp,roll,pitch,heading,rollRate,pitchRate,yawRate,groundSpeed,airSpeed,airSpeedSetpoint,climbRate,altitudeRelative,altitudeAMSL,altitudeTuning,altitudeTuningSetpoint,xTrackError,flightDistance,flightTime,distanceToHome,missionItemIndex,headingToNextWP,headingToHome,distanceToGCS,throttlePct,hobbs,apmSubInfo.cameraTilt,apmSubInfo.tetherTurns,apmSubInfo.lights1,apmSubInfo.lights2,apmSubInfo.pilotGain,apmSubInfo.inputHold,apmSubInfo.rollPitchToggle,apmSubInfo.rangefinderDistance,battery0.id,battery0.batteryFunction,battery0.batteryType,battery0.voltage,battery0.current,battery0.mahConsumed,battery0.temperature,battery0.percentRemaining,battery0.timeRemaining,battery0.timeRemainingStr,battery0.chargeState,battery0.instantPower,clock.currentTime,clock.currentDate,distanceSensor.rotationNone,distanceSensor.rotationYaw45,distanceSensor.rotationYaw90,distanceSensor.rotationYaw135,distanceSensor.rotationYaw180,distanceSensor.rotationYaw225,distanceSensor.rotationYaw270,distanceSensor.rotationYaw315,distanceSensor.rotationPitch90,distanceSensor.rotationPitch270,distanceSensor.minDistance,distanceSensor.maxDistance,escStatus.index,escStatus.rpm1,escStatus.rpm2,escStatus.rpm3,escStatus.rpm4,escStatus.current1,escStatus.current2,escStatus.current3,escStatus.current4,escStatus.voltage1,escStatus.voltage2,escStatus.voltage3,escStatus.voltage4,estimatorStatus.goodAttitudeEsimate,estimatorStatus.goodHorizVelEstimate,estimatorStatus.goodVertVelEstimate,estimatorStatus.goodHorizPosRelEstimate,estimatorStatus.goodHorizPosAbsEstimate,estimatorStatus.goodVertPosAbsEstimate,estimatorStatus.goodVertPosAGLEstimate,estimatorStatus.goodConstPosModeEstimate,estimatorStatus.goodPredHorizPosRelEstimate,estimatorStatus.goodPredHorizPosAbsEstimate,estimatorStatus.gpsGlitch,estimatorStatus.accelError,estimatorStatus.velRatio,estimatorStatus.horizPosRatio,estimatorStatus.vertPosRatio,estimatorStatus.magRatio,estimatorStatus.haglRatio,estimatorStatus.tasRatio,estimatorStatus.horizPosAccuracy,estimatorStatus.vertPosAccuracy,gps.lat,gps.lon,gps.mgrs,gps.hdop,gps.vdop,gps.courseOverGround,gps.lock,gps.count,gps2.lat,gps2.lon,gps2.mgrs,gps2.hdop,gps2.vdop,gps2.courseOverGround,gps2.lock,gps2.count,hygrometer.temperature,hygrometer.humidity,hygrometer.hygrometerid,localPosition.x,localPosition.y,localPosition.z,localPosition.vx,localPosition.vy,localPosition.vz,localPositionSetpoint.x,localPositionSetpoint.y,localPositionSetpoint.z,localPositionSetpoint.vx,localPositionSetpoint.vy,localPositionSetpoint.vz,setpoint.roll,setpoint.pitch,setpoint.yaw,setpoint.rollRate,setpoint.pitchRate,setpoint.yawRate,temperature.temperature1,temperature.temperature2,temperature.temperature3,terrain.blocksPending,terrain.blocksLoaded,vibration.xAxis,vibration.yAxis,vibration.zAxis,vibration.clipCount1,vibration.clipCount2,vibration.clipCount3,wind.direction,wind.speed,wind.verticalSpeed
2022-12-06 11:35:07.691,-1.3,-0.5,41,0.0,0.0,0.0,0.0,0.0,0.000,0.0,0.4,0.1,0.000,0.115,0.000,0.0,00:00:00,0.0,0,--.--,--.--,--.--,49,0000:00:00,50,0,0,0,40,0,2,--.--,0,0,0,--.--,0.78,12,--.--,99,--.--,--:--:--,0,--.--,11:35:06,12/6/2022,--.--,--.--,--.--,--.--,--.--,--.--,--.--,--.--,--.--,--.--,--.--,--.--,0,0.000,0.000,0.000,0.000,0.000,0.000,0.000,0.000,0.000,0.000,0.000,0.000,false,false,false,false,false,false,false,false,false,false,false,false,--.--,--.--,--.--,--.--,--.--,--.--,--.--,--.--,47.6076087,-122.3442916,10TET 49282 72897,1.0,1.0,0.0,3,10,--.--,--.--,,--.--,--.--,--.--,0,0,--.--,--.--,0,0.0,-0.1,-0.4,0.0,-0.0,-0.0,--.--,--.--,--.--,--.--,--.--,--.--,--.--,--.--,--.--,--.--,--.--,--.--,98.89,47.61,--.--,0,0,0.0,0.0,0.0,0,0,0,--.--,--.--,--.--
2022-12-06 11:35:08.685,-1.3,-0.5,42,0.0,0.0,0.0,0.0,0.0,0.000,0.0,0.4,0.1,0.000,0.113,0.000,0.0,00:00:01,0.0,0,--.--,--.--,--.--,0,0000:00:00,50,0,0,0,40,0,2,--.--,0,0,0,--.--,0.53,12,--.--,99,--.--,--:--:--,0,--.--,11:35:07,12/6/2022,--.--,--.--,--.--,--.--,--.--,--.--,--.--,--.--,--.--,--.--,--.--,--.--,0,0.000,0.000,0.000,0.000,0.000,0.000,0.000,0.000,0.000,0.000,0.000,0.000,false,false,false,false,false,false,false,false,false,false,false,false,--.--,--.--,--.--,--.--,--.--,--.--,--.--,--.--,47.6076087,-122.3442916,10TET 49282 72897,1.0,1.0,0.0,3,10,--.--,--.--,,--.--,--.--,--.--,0,0,--.--,--.--,0,0.0,-0.1,-0.4,0.0,-0.0,0.0,--.--,--.--,--.--,--.--,--.--,--.--,--.--,--.--,--.--,--.--,--.--,--.--,98.89,47.61,--.--,0,0,0.0,0.0,0.0,0,0,0,--.--,--.--,--.--
2022-12-06 11:35:09.708,-1.3,-0.5,43,0.0,0.0,0.0,0.0,0.0,0.000,0.0,0.4,0.1,0.000,0.114,0.000,0.0,00:00:01,0.0,0,--.--,--.--,--.--,0,0000:00:00,50,0,0,0,40,0,2,--.--,0,0,0,--.--,0.43,13,--.--,99,--.--,--:--:--,0,--.--,11:35:08,12/6/2022,--.--,--.--,--.--,--.--,--.--,--.--,--.--,--.--,--.--,--.--,--.--,--.--,0,0.000,0.000,0.000,0.000,0.000,0.000,0.000,0.000,0.000,0.000,0.000,0.000,false,false,false,false,false,false,false,false,false,false,false,false,--.--,--.--,--.--,--.--,--.--,--.--,--.--,--.--,47.6076087,-122.3442916,10TET 49282 72897,1.0,1.0,0.0,3,10,--.--,--.--,,--.--,--.--,--.--,0,0,--.--,--.--,0,-0.0,-0.1,-0.4,-0.0,-0.0,-0.0,--.--,--.--,--.--,--.--,--.--,--.--,--.--,--.--,--.--,--.--,--.--,--.--,98.91,47.61,--.--,0,0,0.0,0.0,0.0,0,0,0,--.--,--.--,--.--
2022-12-06 11:35:10.708,-1.3,-0.5,43,0.0,0.0,0.0,0.0,0.0,0.000,0.0,0.4,0.1,0.000,0.114,0.000,0.0,00:00:01,0.0,0,--.--,--.--,--.--,0,0000:00:00,50,0,0,0,40,0,2,--.--,0,0,0,--.--,0.58,13,--.--,99,--.--,--:--:--,0,--.--,11:35:09,12/6/2022,--.--,--.--,--.--,--.--,--.--,--.--,--.--,--.--,--.--,--.--,--.--,--.--,0,0.000,0.000,0.000,0.000,0.000,0.000,0.000,0.000,0.000,0.000,0.000,0.000,false,false,false,false,false,false,false,false,false,false,false,false,--.--,--.--,--.--,--.--,--.--,--.--,--.--,--.--,47.6076087,-122.3442916,10TET 49282 72897,1.0,1.0,0.0,3,10,--.--,--.--,,--.--,--.--,--.--,0,0,--.--,--.--,0,-0.0,-0.0,-0.4,-0.0,-0.0,-0.0,--.--,--.--,--.--,--.--,--.--,--.--,--.--,--.--,--.--,--.--,--.--,--.--,98.91,47.61,--.--,0,0,0.0,0.0,0.0,0,0,0,--.--,--.--,--.--
2022-12-06 11:35:11.706,-1.3,-0.5,44,0.0,0.0,0.0,0.0,0.0,0.000,0.0,0.4,0.1,0.000,0.114,0.000,0.0,00:00:01,0.0,0,--.--,--.--,--.--,0,0000:00:00,50,0,0,0,40,0,2,--.--,0,0,0,--.--,0.52,13,--.--,99,--.--,--:--:--,0,--.--,11:35:10,12/6/2022,--.--,--.--,--.--,--.--,--.--,--.--,--.--,--.--,--.--,--.--,--.--,--.--,0,0.000,0.000,0.000,0.000,0.000,0.000,0.000,0.000,0.000,0.000,0.000,0.000,false,false,false,false,false,false,false,false,false,false,false,false,--.--,--.--,--.--,--.--,--.--,--.--,--.--,--.--,47.6076087,-122.3442916,10TET 49282 72897,1.0,1.0,0.0,3,10,--.--,--.--,,--.--,--.--,--.--,0,0,--.--,--.--,0,-0.0,-0.0,-0.4,-0.0,0.0,0.0,--.--,--.--,--.--,--.--,--.--,--.--,--.--,--.--,--.--,--.--,--.--,--.--,98.91,47.61,--.--,0,0,0.0,0.0,0.0,0,0,0,--.--,--.--,--.--
2022-12-06 11:35:12.702,-1.3,-0.5,44,0.0,0.0,0.0,0.0,0.0,0.000,0.0,0.4,0.1,0.000,0.113,0.000,0.0,00:00:01,0.0,0,--.--,--.--,--.--,0,0000:00:00,50,0,0,0,40,0,2,--.--,0,0,0,--.--,0.54,13,--.--,99,--.--,--:--:--,0,--.--,11:35:11,12/6/2022,--.--,--.--,--.--,--.--,--.--,--.--,--.--,--.--,--.--,--.--,--.--,--.--,0,0.000,0.000,0.000,0.000,0.000,0.000,0.000,0.000,0.000,0.000,0.000,0.000,false,false,false,false,false,false,false,false,false,false,false,false,--.--,--.--,--.--,--.--,--.--,--.--,--.--,--.--,47.6076087,-122.3442916,10TET 49282 72897,1.0,1.0,0.0,3,10,--.--,--.--,,--.--,--.--,--.--,0,0,--.--,--.--,0,-0.0,-0.0,-0.4,-0.0,0.0,0.0,--.--,--.--,--.--,--.--,--.--,--.--,--.--,--.--,--.--,--.--,--.--,--.--,98.92,47.59,--.--,0,0,0.0,0.0,0.0,0,0,0,--.--,--.--,--.--
2022-12-06 11:35:13.704,-1.3,-0.5,45,0.0,0.0,0.0,0.0,0.0,0.000,0.0,0.4,0.1,0.000,0.114,0.000,0.0,00:00:01,0.0,0,--.--,--.--,--.--,0,0000:00:00,50,0,0,0,40,0,2,--.--,0,0,0,--.--,0.52,13,--.--,99,--.--,--:--:--,0,--.--,11:35:12,12/6/2022,--.--,--.--,--.--,--.--,--.--,--.--,--.--,--.--,--.--,--.--,--.--,--.--,0,0.000,0.000,0.000,0.000,0.000,0.000,0.000,0.000,0.000,0.000,0.000,0.000,false,false,false,false,false,false,false,false,false,false,false,false,--.--,--.--,--.--,--.--,--.--,--.--,--.--,--.--,47.6076087,-122.3442916,10TET 49282 72897,1.0,1.0,0.0,3,10,--.--,--.--,,--.--,--.--,--.--,0,0,--.--,--.--,0,-0.0,-0.0,-0.4,-0.0,0.0,-0.0,--.--,--.--,--.--,--.--,--.--,--.--,--.--,--.--,--.--,--.--,--.--,--.--,98.92,47.61,--.--,0,0,0.0,0.0,0.0,0,0,0,--.--,--.--,--.--
2022-12-06 11:35:14.716,-1.3,-0.5,45,0.0,0.0,0.0,0.0,0.0,0.000,0.0,0.4,0.1,0.000,0.117,0.000,0.0,00:00:01,0.0,0,--.--,--.--,--.--,0,0000:00:00,50,0,0,0,40,0,2,--.--,0,0,0,--.--,0.54,13,--.--,99,--.--,--:--:--,0,--.--,11:35:13,12/6/2022,--.--,--.--,--.--,--.--,--.--,--.--,--.--,--.--,--.--,--.--,--.--,--.--,0,0.000,0.000,0.000,0.000,0.000,0.000,0.000,0.000,0.000,0.000,0.000,0.000,false,false,false,false,false,false,false,false,false,false,false,false,--.--,--.--,--.--,--.--,--.--,--.--,--.--,--.--,47.6076087,-122.3442916,10TET 49282 72897,1.0,1.0,0.0,3,10,--.--,--.--,,--.--,--.--,--.--,0,0,--.--,--.--,0,-0.0,-0.0,-0.4,-0.0,0.0,-0.0,--.--,--.--,--.--,--.--,--.--,--.--,--.--,--.--,--.--,--.--,--.--,--.--,98.92,47.59,--.--,0,0,0.0,0.0,0.0,0,0,0,--.--,--.--,--.--
2022-12-06 11:35:15.726,-1.3,-0.5,46,0.0,0.0,0.0,0.0,0.0,0.000,0.0,0.4,0.1,0.000,0.116,0.000,0.0,00:00:01,0.0,0,--.--,--.--,--.--,0,0000:00:00,50,0,0,0,40,0,2,--.--,0,0,0,--.--,0.58,14,--.--,99,--.--,--:--:--,0,--.--,11:35:14,12/6/2022,--.--,--.--,--.--,--.--,--.--,--.--,--.--,--.--,--.--,--.--,--.--,--.--,0,0.000,0.000,0.000,0.000,0.000,0.000,0.000,0.000,0.000,0.000,0.000,0.000,false,false,false,false,false,false,false,false,false,false,false,false,--.--,--.--,--.--,--.--,--.--,--.--,--.--,--.--,47.6076087,-122.3442916,10TET 49282 72897,1.0,1.0,0.0,3,10,--.--,--.--,,--.--,--.--,--.--,0,0,--.--,--.--,0,-0.0,-0.0,-0.4,0.0,0.0,-0.0,--.--,--.--,--.--,--.--,--.--,--.--,--.--,--.--,--.--,--.--,--.--,--.--,98.92,47.59,--.--,0,0,0.0,0.0,0.0,0,0,0,--.--,--.--,--.--
2022-12-06 11:35:16.717,-1.3,-0.5,46,0.0,0.0,0.0,0.0,0.0,0.000,0.0,0.4,0.1,0.000,0.116,0.000,0.0,00:00:01,0.0,0,--.--,--.--,--.--,0,0000:00:00,50,0,0,0,40,0,2,--.--,0,0,0,--.--,0.53,14,--.--,99,--.--,--:--:--,0,--.--,11:35:15,12/6/2022,--.--,--.--,--.--,--.--,--.--,--.--,--.--,--.--,--.--,--.--,--.--,--.--,0,0.000,0.000,0.000,0.000,0.000,0.000,0.000,0.000,0.000,0.000,0.000,0.000,false,false,false,false,false,false,false,false,false,false,false,false,--.--,--.--,--.--,--.--,--.--,--.--,--.--,--.--,47.6076087,-122.3442916,10TET 49282 72897,1.0,1.0,0.0,3,10,--.--,--.--,,--.--,--.--,--.--,0,0,--.--,--.--,0,0.0,-0.0,-0.4,0.0,-0.0,-0.0,--.--,--.--,--.--,--.--,--.--,--.--,--.--,--.--,--.--,--.--,--.--,--.--,98.92,47.59,--.--,0,0,0.0,0.0,0.0,0,0,0,--.--,--.--,--.--
2022-12-06 11:35:17.732,-1.3,-0.5,47,0.0,0.0,0.0,0.0,0.0,0.000,0.0,0.4,0.1,0.000,0.115,0.000,0.0,00:00:01,0.0,0,--.--,--.--,--.--,0,0000:00:00,50,0,0,0,40,0,2,--.--,0,0,0,--.--,0.54,14,--.--,99,--.--,--:--:--,0,--.--,11:35:16,12/6/2022,--.--,--.--,--.--,--.--,--.--,--.--,--.--,--.--,--.--,--.--,--.--,--.--,0,0.000,0.000,0.000,0.000,0.000,0.000,0.000,0.000,0.000,0.000,0.000,0.000,false,false,false,false,false,false,false,false,false,false,false,false,--.--,--.--,--.--,--.--,--.--,--.--,--.--,--.--,47.6076087,-122.3442916,10TET 49282 72897,1.0,1.0,0.0,3,10,--.--,--.--,,--.--,--.--,--.--,0,0,--.--,--.--,0,-0.0,-0.0,-0.4,-0.0,-0.0,-0.0,--.--,--.--,--.--,--.--,--.--,--.--,--.--,--.--,--.--,--.--,--.--,--.--,98.92,47.55,--.--,0,0,0.0,0.0,0.0,0,0,0,--.--,--.--,--.--
2022-12-06 11:35:18.747,-1.3,-0.5,47,0.0,0.0,0.0,0.0,0.0,0.000,0.0,0.4,0.1,0.000,0.113,0.000,0.0,00:00:01,0.0,0,--.--,--.--,--.--,0,0000:00:00,50,0,0,0,40,0,2,--.--,0,0,0,--.--,0.55,14,--.--,99,--.--,--:--:--,0,--.--,11:35:17,12/6/2022,--.--,--.--,--.--,--.--,--.--,--.--,--.--,--.--,--.--,--.--,--.--,--.--,0,0.000,0.000,0.000,0.000,0.000,0.000,0.000,0.000,0.000,0.000,0.000,0.000,false,false,false,false,false,false,false,false,false,false,false,false,--.--,--.--,--.--,--.--,--.--,--.--,--.--,--.--,47.6076087,-122.3442916,10TET 49282 72897,1.0,1.0,0.0,3,10,--.--,--.--,,--.--,--.--,--.--,0,0,--.--,--.--,0,-0.0,-0.0,-0.4,-0.0,0.0,0.0,--.--,--.--,--.--,--.--,--.--,--.--,--.--,--.--,--.--,--.--,--.--,--.--,98.94,47.59,--.--,0,0,0.0,0.0,0.0,0,0,0,--.--,--.--,--.--
2022-12-06 11:35:19.753,-1.3,-0.5,48,0.0,0.0,0.0,0.0,0.0,0.000,0.0,0.4,0.1,0.000,0.112,0.000,0.0,00:00:01,0.0,0,--.--,--.--,--.--,0,0000:00:00,50,0,0,0,40,0,2,--.--,0,0,0,--.--,0.55,14,--.--,99,--.--,--:--:--,0,--.--,11:35:18,12/6/2022,--.--,--.--,--.--,--.--,--.--,--.--,--.--,--.--,--.--,--.--,--.--,--.--,0,0.000,0.000,0.000,0.000,0.000,0.000,0.000,0.000,0.000,0.000,0.000,0.000,false,false,false,false,false,false,false,false,false,false,false,false,--.--,--.--,--.--,--.--,--.--,--.--,--.--,--.--,47.6076087,-122.3442916,10TET 49282 72897,1.0,1.0,0.0,3,10,--.--,--.--,,--.--,--.--,--.--,0,0,--.--,--.--,0,-0.0,-0.0,-0.4,-0.0,-0.0,0.0,--.--,--.--,--.--,--.--,--.--,--.--,--.--,--.--,--.--,--.--,--.--,--.--,98.92,47.55,--.--,0,0,0.0,0.0,0.0,0,0,0,--.--,--.--,--.--
2022-12-06 11:35:20.756,-1.3,-0.5,48,0.0,0.0,0.0,0.0,0.0,0.000,0.0,0.4,0.1,0.000,0.115,0.000,0.0,00:00:01,0.0,0,--.--,--.--,--.--,0,0000:00:00,50,0,0,0,40,0,2,--.--,0,0,0,--.--,0.51,14,--.--,99,--.--,--:--:--,0,--.--,11:35:19,12/6/2022,--.--,--.--,--.--,--.--,--.--,--.--,--.--,--.--,--.--,--.--,--.--,--.--,0,0.000,0.000,0.000,0.000,0.000,0.000,0.000,0.000,0.000,0.000,0.000,0.000,false,false,false,false,false,false,false,false,false,false,false,false,--.--,--.--,--.--,--.--,--.--,--.--,--.--,--.--,47.6076087,-122.3442916,10TET 49282 72897,1.0,1.0,0.0,3,10,--.--,--.--,,--.--,--.--,--.--,0,0,--.--,--.--,0,-0.0,-0.0,-0.4,-0.0,-0.0,-0.0,--.--,--.--,--.--,--.--,--.--,--.--,--.--,--.--,--.--,--.--,--.--,--.--,98.94,47.55,--.--,0,0,0.0,0.0,0.0,0,0,0,--.--,--.--,--.--
2022-12-06 11:35:21.748,-1.3,-0.5,48,0.0,0.0,0.0,0.0,0.0,0.000,0.0,0.4,0.1,0.000,0.114,0.000,0.0,00:00:01,0.0,0,--.--,--.--,--.--,0,0000:00:00,50,0,0,0,40,0,2,--.--,0,0,0,--.--,0.53,14,--.--,99,--.--,--:--:--,0,--.--,11:35:20,12/6/2022,--.--,--.--,--.--,--.--,--.--,--.--,--.--,--.--,--.--,--.--,--.--,--.--,0,0.000,0.000,0.000,0.000,0.000,0.000,0.000,0.000,0.000,0.000,0.000,0.000,false,false,false,false,false,false,false,false,false,false,false,false,--.--,--.--,--.--,--.--,--.--,--.--,--.--,--.--,47.6076087,-122.3442916,10TET 49282 72897,1.0,1.0,0.0,3,10,--.--,--.--,,--.--,--.--,--.--,0,0,--.--,--.--,0,-0.0,-0.0,-0.4,-0.0,-0.0,0.0,--.--,--.--,--.--,--.--,--.--,--.--,--.--,--.--,--.--,--.--,--.--,--.--,98.94,47.55,--.--,0,0,0.0,0.0,0.0,0,0,0,--.--,--.--,--.--
2022-12-06 11:35:22.760,-1.3,-0.5,49,0.0,0.0,0.0,0.0,0.0,0.000,0.0,0.4,0.1,0.000,0.112,0.000,0.0,00:00:01,0.0,0,--.--,--.--,--.--,0,0000:00:00,50,0,0,0,40,0,2,--.--,0,0,0,--.--,0.54,15,--.--,99,--.--,--:--:--,0,--.--,11:35:21,12/6/2022,--.--,--.--,--.--,--.--,--.--,--.--,--.--,--.--,--.--,--.--,--.--,--.--,0,0.000,0.000,0.000,0.000,0.000,0.000,0.000,0.000,0.000,0.000,0.000,0.000,false,false,false,false,false,false,false,false,false,false,false,false,--.--,--.--,--.--,--.--,--.--,--.--,--.--,--.--,47.6076087,-122.3442916,10TET 49282 72897,1.0,1.0,0.0,3,10,--.--,--.--,,--.--,--.--,--.--,0,0,--.--,--.--,0,-0.0,-0.0,-0.4,-0.0,-0.0,0.0,--.--,--.--,--.--,--.--,--.--,--.--,--.--,--.--,--.--,--.--,--.--,--.--,98.92,47.55,--.--,0,0,0.0,0.0,0.0,0,0,0,--.--,--.--,--.--
2022-12-06 11:35:23.750,-1.3,-0.5,49,0.0,0.0,0.0,0.0,0.0,0.000,0.0,0.4,0.1,0.000,0.113,0.000,0.0,00:00:01,0.0,0,--.--,--.--,--.--,0,0000:00:00,50,0,0,0,40,0,2,--.--,0,0,0,--.--,0.52,15,--.--,99,--.--,--:--:--,0,--.--,11:35:22,12/6/2022,--.--,--.--,--.--,--.--,--.--,--.--,--.--,--.--,--.--,--.--,--.--,--.--,0,0.000,0.000,0.000,0.000,0.000,0.000,0.000,0.000,0.000,0.000,0.000,0.000,false,false,false,false,false,false,false,false,false,false,false,false,--.--,--.--,--.--,--.--,--.--,--.--,--.--,--.--,47.6076087,-122.3442916,10TET 49282 72897,1.0,1.0,0.0,3,10,--.--,--.--,,--.--,--.--,--.--,0,0,--.--,--.--,0,-0.0,-0.0,-0.4,-0.0,-0.0,0.0,--.--,--.--,--.--,--.--,--.--,--.--,--.--,--.--,--.--,--.--,--.--,--.--,98.94,47.55,--.--,0,0,0.0,0.0,0.0,0,0,0,--.--,--.--,--.--
2022-12-06 11:35:24.749,-1.3,-0.5,49,0.0,0.0,0.0,0.0,0.0,0.000,0.0,0.4,0.1,0.000,0.114,0.000,0.0,00:00:01,0.0,0,--.--,--.--,--.--,0,0000:00:00,50,0,0,0,40,0,2,--.--,0,0,0,--.--,0.60,15,--.--,99,--.--,--:--:--,0,--.--,11:35:23,12/6/2022,--.--,--.--,--.--,--.--,--.--,--.--,--.--,--.--,--.--,--.--,--.--,--.--,0,0.000,0.000,0.000,0.000,0.000,0.000,0.000,0.000,0.000,0.000,0.000,0.000,false,false,false,false,false,false,false,false,false,false,false,false,--.--,--.--,--.--,--.--,--.--,--.--,--.--,--.--,47.6076087,-122.3442916,10TET 49282 72897,1.0,1.0,0.0,3,10,--.--,--.--,,--.--,--.--,--.--,0,0,--.--,--.--,0,-0.0,-0.0,-0.4,0.0,-0.0,-0.0,--.--,--.--,--.--,--.--,--.--,--.--,--.--,--.--,--.--,--.--,--.--,--.--,98.94,47.55,--.--,0,0,0.0,0.0,0.0,0,0,0,--.--,--.--,--.--
2022-12-06 11:35:25.758,-1.3,-0.5,50,0.0,0.0,0.0,0.0,0.0,0.000,0.0,0.4,0.1,0.000,0.115,0.000,0.0,00:00:01,0.0,0,--.--,--.--,--.--,0,0000:00:00,50,0,0,0,40,0,2,--.--,0,0,0,--.--,0.55,15,--.--,99,--.--,--:--:--,0,--.--,11:35:24,12/6/2022,--.--,--.--,--.--,--.--,--.--,--.--,--.--,--.--,--.--,--.--,--.--,--.--,0,0.000,0.000,0.000,0.000,0.000,0.000,0.000,0.000,0.000,0.000,0.000,0.000,false,false,false,false,false,false,false,false,false,false,false,false,--.--,--.--,--.--,--.--,--.--,--.--,--.--,--.--,47.6076087,-122.3442916,10TET 49282 72897,1.0,1.0,0.0,3,10,--.--,--.--,,--.--,--.--,--.--,0,0,--.--,--.--,0,0.0,-0.0,-0.4,0.0,0.0,-0.0,--.--,--.--,--.--,--.--,--.--,--.--,--.--,--.--,--.--,--.--,--.--,--.--,98.94,47.53,--.--,0,0,0.0,0.0,0.0,0,0,0,--.--,--.--,--.--
2022-12-06 11:35:26.750,-1.3,-0.5,50,0.0,0.0,0.0,0.0,0.0,0.000,0.0,0.4,0.1,0.000,0.116,0.000,0.0,00:00:01,0.0,0,--.--,--.--,--.--,0,0000:00:00,50,0,0,0,40,0,2,--.--,0,0,0,--.--,0.33,15,--.--,99,--.--,--:--:--,0,--.--,11:35:25,12/6/2022,--.--,--.--,--.--,--.--,--.--,--.--,--.--,--.--,--.--,--.--,--.--,--.--,0,0.000,0.000,0.000,0.000,0.000,0.000,0.000,0.000,0.000,0.000,0.000,0.000,false,false,false,false,false,false,false,false,false,false,false,false,--.--,--.--,--.--,--.--,--.--,--.--,--.--,--.--,47.6076087,-122.3442916,10TET 49282 72897,1.0,1.0,0.0,3,10,--.--,--.--,,--.--,--.--,--.--,0,0,--.--,--.--,0,0.0,-0.0,-0.4,0.0,0.0,-0.0,--.--,--.--,--.--,--.--,--.--,--.--,--.--,--.--,--.--,--.--,--.--,--.--,98.94,47.53,--.--,0,0,0.0,0.0,0.0,0,0,0,--.--,--.--,--.--
2022-12-06 11:35:27.750,-1.3,-0.5,50,0.0,0.0,0.0,0.0,0.0,0.000,0.0,0.4,0.1,0.000,0.115,0.000,0.0,00:00:01,0.0,0,--.--,--.--,--.--,0,0000:00:00,50,0,0,0,40,0,2,--.--,0,0,0,--.--,0.55,15,--.--,99,--.--,--:--:--,0,--.--,11:35:26,12/6/2022,--.--,--.--,--.--,--.--,--.--,--.--,--.--,--.--,--.--,--.--,--.--,--.--,0,0.000,0.000,0.000,0.000,0.000,0.000,0.000,0.000,0.000,0.000,0.000,0.000,false,false,false,false,false,false,false,false,false,false,false,false,--.--,--.--,--.--,--.--,--.--,--.--,--.--,--.--,47.6076087,-122.3442916,10TET 49282 72897,1.0,1.0,0.0,3,10,--.--,--.--,,--.--,--.--,--.--,0,0,--.--,--.--,0,0.0,-0.0,-0.4,0.0,0.0,-0.0,--.--,--.--,--.--,--.--,--.--,--.--,--.--,--.--,--.--,--.--,--.--,--.--,98.94,47.55,--.--,0,0,0.0,0.0,0.0,0,0,0,--.--,--.--,--.--
2022-12-06 11:35:28.747,-1.3,-0.5,50,0.0,0.0,0.0,0.0,0.0,0.000,0.0,0.4,0.1,0.000,0.111,0.000,0.0,00:00:01,0.0,0,--.--,--.--,--.--,0,0000:00:00,50,0,0,0,40,0,2,--.--,0,0,0,--.--,0.50,15,--.--,99,--.--,--:--:--,0,--.--,11:35:27,12/6/2022,--.--,--.--,--.--,--.--,--.--,--.--,--.--,--.--,--.--,--.--,--.--,--.--,0,0.000,0.000,0.000,0.000,0.000,0.000,0.000,0.000,0.000,0.000,0.000,0.000,false,false,false,false,false,false,false,false,false,false,false,false,--.--,--.--,--.--,--.--,--.--,--.--,--.--,--.--,47.6076087,-122.3442916,10TET 49282 72897,1.0,1.0,0.0,3,10,--.--,--.--,,--.--,--.--,--.--,0,0,--.--,--.--,0,0.0,-0.0,-0.4,0.0,0.0,0.0,--.--,--.--,--.--,--.--,--.--,--.--,--.--,--.--,--.--,--.--,--.--,--.--,98.94,47.53,--.--,0,0,0.0,0.0,0.0,0,0,0,--.--,--.--,--.--
2022-12-06 11:35:29.763,-1.3,-0.5,51,0.0,0.0,0.0,0.0,0.0,0.000,0.0,0.4,0.1,0.000,0.112,0.000,0.0,00:00:01,0.0,0,--.--,--.--,--.--,0,0000:00:00,50,0,0,0,40,0,2,--.--,0,0,0,--.--,0.59,16,--.--,99,--.--,--:--:--,0,--.--,11:35:28,12/6/2022,--.--,--.--,--.--,--.--,--.--,--.--,--.--,--.--,--.--,--.--,--.--,--.--,0,0.000,0.000,0.000,0.000,0.000,0.000,0.000,0.000,0.000,0.000,0.000,0.000,false,false,false,false,false,false,false,false,false,false,false,false,--.--,--.--,--.--,--.--,--.--,--.--,--.--,--.--,47.6076087,-122.3442916,10TET 49282 72897,1.0,1.0,0.0,3,10,--.--,--.--,,--.--,--.--,--.--,0,0,--.--,--.--,0,0.0,-0.0,-0.4,0.0,0.0,0.0,--.--,--.--,--.--,--.--,--.--,--.--,--.--,--.--,--.--,--.--,--.--,--.--,98.94,47.53,--.--,0,0,0.0,0.0,0.0,0,0,0,--.--,--.--,--.--
2022-12-06 11:35:30.765,-1.3,-0.5,51,0.0,0.0,0.0,0.0,0.0,0.000,0.0,0.4,0.1,0.000,0.114,0.000,0.0,00:00:01,0.0,0,--.--,--.--,--.--,0,0000:00:00,50,0,0,0,40,0,2,--.--,0,0,0,--.--,0.56,16,--.--,99,--.--,--:--:--,0,--.--,11:35:29,12/6/2022,--.--,--.--,--.--,--.--,--.--,--.--,--.--,--.--,--.--,--.--,--.--,--.--,0,0.000,0.000,0.000,0.000,0.000,0.000,0.000,0.000,0.000,0.000,0.000,0.000,false,false,false,false,false,false,false,false,false,false,false,false,--.--,--.--,--.--,--.--,--.--,--.--,--.--,--.--,47.6076087,-122.3442916,10TET 49282 72897,1.0,1.0,0.0,3,10,--.--,--.--,,--.--,--.--,--.--,0,0,--.--,--.--,0,0.0,-0.0,-0.4,0.0,0.0,-0.0,--.--,--.--,--.--,--.--,--.--,--.--,--.--,--.--,--.--,--.--,--.--,--.--,98.94,47.53,--.--,0,0,0.0,0.0,0.0,0,0,0,--.--,--.--,--.--
2022-12-06 11:35:31.771,-1.3,-0.5,51,0.0,0.0,0.0,0.0,0.0,0.000,0.0,0.4,0.1,0.000,0.112,0.000,0.0,00:00:01,0.0,0,--.--,--.--,--.--,0,0000:00:00,50,0,0,0,40,0,2,--.--,0,0,0,--.--,0.56,16,--.--,99,--.--,--:--:--,0,--.--,11:35:30,12/6/2022,--.--,--.--,--.--,--.--,--.--,--.--,--.--,--.--,--.--,--.--,--.--,--.--,0,0.000,0.000,0.000,0.000,0.000,0.000,0.000,0.000,0.000,0.000,0.000,0.000,false,false,false,false,false,false,false,false,false,false,false,false,--.--,--.--,--.--,--.--,--.--,--.--,--.--,--.--,47.6076087,-122.3442916,10TET 49282 72897,1.0,1.0,0.0,3,10,--.--,--.--,,--.--,--.--,--.--,0,0,--.--,--.--,0,0.0,-0.0,-0.4,-0.0,0.0,0.0,--.--,--.--,--.--,--.--,--.--,--.--,--.--,--.--,--.--,--.--,--.--,--.--,98.94,47.53,--.--,0,0,0.0,0.0,0.0,0,0,0,--.--,--.--,--.--
2022-12-06 11:35:32.770,-1.3,-0.5,51,0.0,0.0,0.0,0.0,0.0,0.000,0.0,0.4,0.1,0.000,0.112,0.000,0.0,00:00:01,0.0,0,--.--,--.--,--.--,0,0000:00:00,50,0,0,0,40,0,2,--.--,0,0,0,--.--,0.55,16,--.--,99,--.--,--:--:--,0,--.--,11:35:31,12/6/2022,--.--,--.--,--.--,--.--,--.--,--.--,--.--,--.--,--.--,--.--,--.--,--.--,0,0.000,0.000,0.000,0.000,0.000,0.000,0.000,0.000,0.000,0.000,0.000,0.000,false,false,false,false,false,false,false,false,false,false,false,false,--.--,--.--,--.--,--.--,--.--,--.--,--.--,--.--,47.6076087,-122.3442916,10TET 49282 72897,1.0,1.0,0.0,3,10,--.--,--.--,,--.--,--.--,--.--,0,0,--.--,--.--,0,0.0,-0.0,-0.4,-0.0,0.0,0.0,--.--,--.--,--.--,--.--,--.--,--.--,--.--,--.--,--.--,--.--,--.--,--.--,98.94,47.53,--.--,0,0,0.0,0.0,0.0,0,0,0,--.--,--.--,--.--
2022-12-06 11:35:33.764,-1.3,-0.5,52,0.0,0.0,0.0,0.0,0.0,0.000,0.0,0.4,0.1,0.000,0.113,0.000,0.0,00:00:01,0.0,0,--.--,--.--,--.--,0,0000:00:00,50,0,0,0,40,0,2,--.--,0,0,0,--.--,0.51,16,--.--,99,--.--,--:--:--,0,--.--,11:35:32,12/6/2022,--.--,--.--,--.--,--.--,--.--,--.--,--.--,--.--,--.--,--.--,--.--,--.--,0,0.000,0.000,0.000,0.000,0.000,0.000,0.000,0.000,0.000,0.000,0.000,0.000,false,false,false,false,false,false,false,false,false,false,false,false,--.--,--.--,--.--,--.--,--.--,--.--,--.--,--.--,47.6076087,-122.3442916,10TET 49282 72897,1.0,1.0,0.0,3,10,--.--,--.--,,--.--,--.--,--.--,0,0,--.--,--.--,0,-0.0,-0.0,-0.4,-0.0,-0.0,0.0,--.--,--.--,--.--,--.--,--.--,--.--,--.--,--.--,--.--,--.--,--.--,--.--,98.94,47.53,--.--,0,0,0.0,0.0,0.0,0,0,0,--.--,--.--,--.--
2022-12-06 11:35:34.770,-1.3,-0.5,52,0.0,0.0,0.0,0.0,0.0,0.000,0.0,0.4,0.1,0.000,0.111,0.000,0.0,00:00:01,0.0,0,--.--,--.--,--.--,0,0000:00:00,50,0,0,0,40,0,2,--.--,0,0,0,--.--,0.54,16,--.--,99,--.--,--:--:--,0,--.--,11:35:33,12/6/2022,--.--,--.--,--.--,--.--,--.--,--.--,--.--,--.--,--.--,--.--,--.--,--.--,0,0.000,0.000,0.000,0.000,0.000,0.000,0.000,0.000,0.000,0.000,0.000,0.000,false,false,false,false,false,false,false,false,false,false,false,false,--.--,--.--,--.--,--.--,--.--,--.--,--.--,--.--,47.6076087,-122.3442916,10TET 49282 72897,1.0,1.0,0.0,3,10,--.--,--.--,,--.--,--.--,--.--,0,0,--.--,--.--,0,-0.0,-0.0,-0.4,-0.0,-0.0,0.0,--.--,--.--,--.--,--.--,--.--,--.--,--.--,--.--,--.--,--.--,--.--,--.--,98.94,47.53,--.--,0,0,0.0,0.0,0.0,0,0,0,--.--,--.--,--.--
2022-12-06 11:35:35.764,-1.3,-0.5,52,0.0,0.0,0.0,0.0,0.0,0.000,0.0,0.4,0.1,0.000,0.114,0.000,0.0,00:00:01,0.0,0,--.--,--.--,--.--,0,0000:00:00,50,0,0,0,40,0,2,--.--,0,0,0,--.--,0.54,17,--.--,99,--.--,--:--:--,0,--.--,11:35:34,12/6/2022,--.--,--.--,--.--,--.--,--.--,--.--,--.--,--.--,--.--,--.--,--.--,--.--,0,0.000,0.000,0.000,0.000,0.000,0.000,0.000,0.000,0.000,0.000,0.000,0.000,false,false,false,false,false,false,false,false,false,false,false,false,--.--,--.--,--.--,--.--,--.--,--.--,--.--,--.--,47.6076087,-122.3442916,10TET 49282 72897,1.0,1.0,0.0,3,10,--.--,--.--,,--.--,--.--,--.--,0,0,--.--,--.--,0,-0.0,-0.0,-0.4,-0.0,-0.0,-0.0,--.--,--.--,--.--,--.--,--.--,--.--,--.--,--.--,--.--,--.--,--.--,--.--,98.94,47.53,--.--,0,0,0.0,0.0,0.0,0,0,0,--.--,--.--,--.--
2022-12-06 11:35:36.768,-1.3,-0.5,52,0.0,0.0,0.0,0.0,0.0,0.000,0.0,0.4,0.1,0.000,0.117,0.000,0.0,00:00:01,0.0,0,--.--,--.--,--.--,0,0000:00:00,50,0,0,0,40,0,2,--.--,0,0,0,--.--,0.54,17,--.--,99,--.--,--:--:--,0,--.--,11:35:35,12/6/2022,--.--,--.--,--.--,--.--,--.--,--.--,--.--,--.--,--.--,--.--,--.--,--.--,0,0.000,0.000,0.000,0.000,0.000,0.000,0.000,0.000,0.000,0.000,0.000,0.000,false,false,false,false,false,false,false,false,false,false,false,false,--.--,--.--,--.--,--.--,--.--,--.--,--.--,--.--,47.6076087,-122.3442916,10TET 49282 72897,1.0,1.0,0.0,3,10,--.--,--.--,,--.--,--.--,--.--,0,0,--.--,--.--,0,0.0,-0.0,-0.4,0.0,-0.0,-0.0,--.--,--.--,--.--,--.--,--.--,--.--,--.--,--.--,--.--,--.--,--.--,--.--,98.94,47.53,--.--,0,0,0.0,0.0,0.0,0,0,0,--.--,--.--,--.--
2022-12-06 11:35:37.765,-1.4,-0.5,53,0.0,0.0,0.0,0.0,0.0,0.000,0.0,0.4,0.1,0.000,0.114,0.000,0.0,00:00:01,0.0,0,--.--,--.--,--.--,0,0000:00:00,50,0,0,0,40,0,2,--.--,0,0,0,--.--,0.52,17,--.--,99,--.--,--:--:--,0,--.--,11:35:36,12/6/2022,--.--,--.--,--.--,--.--,--.--,--.--,--.--,--.--,--.--,--.--,--.--,--.--,0,0.000,0.000,0.000,0.000,0.000,0.000,0.000,0.000,0.000,0.000,0.000,0.000,false,false,false,false,false,false,false,false,false,false,false,false,--.--,--.--,--.--,--.--,--.--,--.--,--.--,--.--,47.6076087,-122.3442916,10TET 49282 72897,1.0,1.0,0.0,3,10,--.--,--.--,,--.--,--.--,--.--,0,0,--.--,--.--,0,0.0,-0.0,-0.4,0.0,-0.0,-0.0,--.--,--.--,--.--,--.--,--.--,--.--,--.--,--.--,--.--,--.--,--.--,--.--,98.94,47.53,--.--,0,0,0.0,0.0,0.0,0,0,0,--.--,--.--,--.--
2022-12-06 11:35:38.779,-1.4,-0.5,53,0.0,0.0,0.0,0.0,0.0,0.000,0.0,0.4,0.1,0.000,0.112,0.000,0.0,00:00:01,0.0,0,--.--,--.--,--.--,0,0000:00:00,50,0,0,0,40,0,2,--.--,0,0,0,--.--,0.78,17,--.--,99,--.--,--:--:--,0,--.--,11:35:37,12/6/2022,--.--,--.--,--.--,--.--,--.--,--.--,--.--,--.--,--.--,--.--,--.--,--.--,0,0.000,0.000,0.000,0.000,0.000,0.000,0.000,0.000,0.000,0.000,0.000,0.000,false,false,false,false,false,false,false,false,false,false,false,false,--.--,--.--,--.--,--.--,--.--,--.--,--.--,--.--,47.6076087,-122.3442916,10TET 49282 72897,1.0,1.0,0.0,3,10,--.--,--.--,,--.--,--.--,--.--,0,0,--.--,--.--,0,0.0,-0.0,-0.4,0.0,-0.0,0.0,--.--,--.--,--.--,--.--,--.--,--.--,--.--,--.--,--.--,--.--,--.--,--.--,98.94,47.53,--.--,0,0,0.0,0.0,0.0,0,0,0,--.--,--.--,--.--
2022-12-06 11:35:39.779,-1.3,-0.5,53,0.0,0.0,0.0,0.0,0.0,0.000,0.0,0.4,0.1,0.000,0.112,0.000,0.0,00:00:01,0.0,0,--.--,--.--,--.--,0,0000:00:00,50,0,0,0,40,0,2,--.--,0,0,0,--.--,0.53,17,--.--,99,--.--,--:--:--,0,--.--,11:35:38,12/6/2022,--.--,--.--,--.--,--.--,--.--,--.--,--.--,--.--,--.--,--.--,--.--,--.--,0,0.000,0.000,0.000,0.000,0.000,0.000,0.000,0.000,0.000,0.000,0.000,0.000,false,false,false,false,false,false,false,false,false,false,false,false,--.--,--.--,--.--,--.--,--.--,--.--,--.--,--.--,47.6076087,-122.3442916,10TET 49282 72897,1.0,1.0,0.0,3,10,--.--,--.--,,--.--,--.--,--.--,0,0,--.--,--.--,0,0.0,-0.0,-0.4,0.0,-0.0,-0.0,--.--,--.--,--.--,--.--,--.--,--.--,--.--,--.--,--.--,--.--,--.--,--.--,98.94,47.53,--.--,0,0,0.0,0.0,0.0,0,0,0,--.--,--.--,--.--
2022-12-06 11:35:40.780,-1.3,-0.5,53,0.0,0.0,0.0,0.0,0.0,0.000,0.0,0.4,0.1,0.000,0.115,0.000,0.0,00:00:01,0.0,0,--.--,--.--,--.--,0,0000:00:00,50,0,0,0,40,0,2,--.--,0,0,0,--.--,0.55,17,--.--,99,--.--,--:--:--,0,--.--,11:35:39,12/6/2022,--.--,--.--,--.--,--.--,--.--,--.--,--.--,--.--,--.--,--.--,--.--,--.--,0,0.000,0.000,0.000,0.000,0.000,0.000,0.000,0.000,0.000,0.000,0.000,0.000,false,false,false,false,false,false,false,false,false,false,false,false,--.--,--.--,--.--,--.--,--.--,--.--,--.--,--.--,47.6076087,-122.3442916,10TET 49282 72897,1.0,1.0,0.0,3,10,--.--,--.--,,--.--,--.--,--.--,0,0,--.--,--.--,0,0.0,-0.0,-0.4,-0.0,-0.0,-0.0,--.--,--.--,--.--,--.--,--.--,--.--,--.--,--.--,--.--,--.--,--.--,--.--,98.94,47.53,--.--,0,0,0.0,0.0,0.0,0,0,0,--.--,--.--,--.--
2022-12-06 11:35:41.779,-1.3,-0.5,53,0.0,0.0,0.0,0.0,0.0,0.000,0.0,0.4,0.1,0.000,0.115,0.000,0.0,00:00:01,0.0,0,--.--,--.--,--.--,0,0000:00:00,50,0,0,0,40,0,2,--.--,0,0,0,--.--,0.53,17,--.--,99,--.--,--:--:--,0,--.--,11:35:40,12/6/2022,--.--,--.--,--.--,--.--,--.--,--.--,--.--,--.--,--.--,--.--,--.--,--.--,0,0.000,0.000,0.000,0.000,0.000,0.000,0.000,0.000,0.000,0.000,0.000,0.000,false,false,false,false,false,false,false,false,false,false,false,false,--.--,--.--,--.--,--.--,--.--,--.--,--.--,--.--,47.6076087,-122.3442916,10TET 49282 72897,1.0,1.0,0.0,3,10,--.--,--.--,,--.--,--.--,--.--,0,0,--.--,--.--,0,0.0,-0.0,-0.4,0.0,-0.0,-0.0,--.--,--.--,--.--,--.--,--.--,--.--,--.--,--.--,--.--,--.--,--.--,--.--,98.94,47.53,--.--,0,0,0.0,0.0,0.0,0,0,0,--.--,--.--,--.--
2022-12-06 11:35:42.783,-1.3,-0.5,53,0.0,0.0,0.0,0.0,0.0,0.000,0.0,0.4,0.1,0.000,0.115,0.000,0.0,00:00:01,0.0,0,--.--,--.--,--.--,0,0000:00:00,50,0,0,0,40,0,2,--.--,0,0,0,--.--,0.55,18,--.--,99,--.--,--:--:--,0,--.--,11:35:41,12/6/2022,--.--,--.--,--.--,--.--,--.--,--.--,--.--,--.--,--.--,--.--,--.--,--.--,0,0.000,0.000,0.000,0.000,0.000,0.000,0.000,0.000,0.000,0.000,0.000,0.000,false,false,false,false,false,false,false,false,false,false,false,false,--.--,--.--,--.--,--.--,--.--,--.--,--.--,--.--,47.6076087,-122.3442916,10TET 49282 72897,1.0,1.0,0.0,3,10,--.--,--.--,,--.--,--.--,--.--,0,0,--.--,--.--,0,-0.0,-0.0,-0.4,-0.0,-0.0,-0.0,--.--,--.--,--.--,--.--,--.--,--.--,--.--,--.--,--.--,--.--,--.--,--.--,98.94,47.53,--.--,0,0,0.0,0.0,0.0,0,0,0,--.--,--.--,--.--
2022-12-06 11:35:43.783,-1.3,-0.5,54,0.0,0.0,0.0,0.0,0.0,0.000,0.0,0.4,0.1,0.000,0.115,0.000,0.0,00:00:01,0.0,0,--.--,--.--,--.--,0,0000:00:00,50,0,0,0,40,0,2,--.--,0,0,0,--.--,0.55,18,--.--,99,--.--,--:--:--,0,--.--,11:35:42,12/6/2022,--.--,--.--,--.--,--.--,--.--,--.--,--.--,--.--,--.--,--.--,--.--,--.--,0,0.000,0.000,0.000,0.000,0.000,0.000,0.000,0.000,0.000,0.000,0.000,0.000,false,false,false,false,false,false,false,false,false,false,false,false,--.--,--.--,--.--,--.--,--.--,--.--,--.--,--.--,47.6076087,-122.3442916,10TET 49282 72897,1.0,1.0,0.0,3,10,--.--,--.--,,--.--,--.--,--.--,0,0,--.--,--.--,0,-0.0,-0.0,-0.4,-0.0,-0.0,-0.0,--.--,--.--,--.--,--.--,--.--,--.--,--.--,--.--,--.--,--.--,--.--,--.--,98.94,47.53,--.--,0,0,0.0,0.0,0.0,0,0,0,--.--,--.--,--.--
2022-12-06 11:35:44.781,-1.3,-0.5,54,0.0,0.0,0.0,0.0,0.0,0.000,0.0,0.4,0.1,0.000,0.116,0.000,0.0,00:00:01,0.0,0,--.--,--.--,--.--,0,0000:00:00,50,0,0,0,40,0,2,--.--,0,0,0,--.--,0.52,18,--.--,99,--.--,--:--:--,0,--.--,11:35:43,12/6/2022,--.--,--.--,--.--,--.--,--.--,--.--,--.--,--.--,--.--,--.--,--.--,--.--,0,0.000,0.000,0.000,0.000,0.000,0.000,0.000,0.000,0.000,0.000,0.000,0.000,false,false,false,false,false,false,false,false,false,false,false,false,--.--,--.--,--.--,--.--,--.--,--.--,--.--,--.--,47.6076087,-122.3442916,10TET 49282 72897,1.0,1.0,0.0,3,10,--.--,--.--,,--.--,--.--,--.--,0,0,--.--,--.--,0,-0.0,-0.0,-0.4,-0.0,-0.0,-0.0,--.--,--.--,--.--,--.--,--.--,--.--,--.--,--.--,--.--,--.--,--.--,--.--,98.94,47.53,--.--,0,0,0.0,0.0,0.0,0,0,0,--.--,--.--,--.--
2022-12-06 11:35:45.779,-1.3,-0.5,54,0.0,0.0,0.0,0.0,0.0,0.000,0.0,0.4,0.1,0.000,0.116,0.000,0.0,00:00:01,0.0,0,--.--,--.--,--.--,0,0000:00:00,50,0,0,0,40,0,2,--.--,0,0,0,--.--,0.50,18,--.--,99,--.--,--:--:--,0,--.--,11:35:44,12/6/2022,--.--,--.--,--.--,--.--,--.--,--.--,--.--,--.--,--.--,--.--,--.--,--.--,0,0.000,0.000,0.000,0.000,0.000,0.000,0.000,0.000,0.000,0.000,0.000,0.000,false,false,false,false,false,false,false,false,false,false,false,false,--.--,--.--,--.--,--.--,--.--,--.--,--.--,--.--,47.6076087,-122.3442916,10TET 49282 72897,1.0,1.0,0.0,3,10,--.--,--.--,,--.--,--.--,--.--,0,0,--.--,--.--,0,-0.0,-0.0,-0.4,-0.0,-0.0,-0.0,--.--,--.--,--.--,--.--,--.--,--.--,--.--,--.--,--.--,--.--,--.--,--.--,98.94,47.52,--.--,0,0,0.0,0.0,0.0,0,0,0,--.--,--.--,--.--
2022-12-06 11:35:46.812,-1.3,-0.5,54,0.0,0.0,0.0,0.0,0.0,0.000,0.0,0.4,0.1,0.000,0.114,0.000,0.0,00:00:01,0.0,0,--.--,--.--,--.--,0,0000:00:00,50,0,0,0,40,0,2,--.--,0,0,0,--.--,0.51,18,--.--,99,--.--,--:--:--,0,--.--,11:35:45,12/6/2022,--.--,--.--,--.--,--.--,--.--,--.--,--.--,--.--,--.--,--.--,--.--,--.--,0,0.000,0.000,0.000,0.000,0.000,0.000,0.000,0.000,0.000,0.000,0.000,0.000,false,false,false,false,false,false,false,false,false,false,false,false,--.--,--.--,--.--,--.--,--.--,--.--,--.--,--.--,47.6076087,-122.3442916,10TET 49282 72897,1.0,1.0,0.0,3,10,--.--,--.--,,--.--,--.--,--.--,0,0,--.--,--.--,0,-0.0,-0.0,-0.4,-0.0,-0.0,0.0,--.--,--.--,--.--,--.--,--.--,--.--,--.--,--.--,--.--,--.--,--.--,--.--,98.94,47.53,--.--,0,0,0.0,0.0,0.0,0,0,0,--.--,--.--,--.--
2022-12-06 11:35:47.780,-1.3,-0.5,54,0.0,0.0,0.0,0.0,0.0,0.000,0.0,0.4,0.1,0.000,0.112,0.000,0.0,00:00:01,0.0,0,--.--,--.--,--.--,0,0000:00:00,50,0,0,0,40,0,2,--.--,0,0,0,--.--,0.38,18,--.--,99,--.--,--:--:--,0,--.--,11:35:46,12/6/2022,--.--,--.--,--.--,--.--,--.--,--.--,--.--,--.--,--.--,--.--,--.--,--.--,0,0.000,0.000,0.000,0.000,0.000,0.000,0.000,0.000,0.000,0.000,0.000,0.000,false,false,false,false,false,false,false,false,false,false,false,false,--.--,--.--,--.--,--.--,--.--,--.--,--.--,--.--,47.6076087,-122.3442916,10TET 49282 72897,1.0,1.0,0.0,3,10,--.--,--.--,,--.--,--.--,--.--,0,0,--.--,--.--,0,-0.0,-0.0,-0.4,-0.0,-0.0,0.0,--.--,--.--,--.--,--.--,--.--,--.--,--.--,--.--,--.--,--.--,--.--,--.--,98.94,47.52,--.--,0,0,0.0,0.0,0.0,0,0,0,--.--,--.--,--.--
2022-12-06 11:35:48.779,-1.3,-0.5,54,0.0,0.0,0.0,0.0,0.0,0.000,0.0,0.4,0.1,0.000,0.113,0.000,0.0,00:00:01,0.0,0,--.--,--.--,--.--,0,0000:00:00,50,0,0,0,40,0,2,--.--,0,0,0,--.--,0.54,19,--.--,99,--.--,--:--:--,0,--.--,11:35:47,12/6/2022,--.--,--.--,--.--,--.--,--.--,--.--,--.--,--.--,--.--,--.--,--.--,--.--,0,0.000,0.000,0.000,0.000,0.000,0.000,0.000,0.000,0.000,0.000,0.000,0.000,false,false,false,false,false,false,false,false,false,false,false,false,--.--,--.--,--.--,--.--,--.--,--.--,--.--,--.--,47.6076087,-122.3442916,10TET 49282 72897,1.0,1.0,0.0,3,10,--.--,--.--,,--.--,--.--,--.--,0,0,--.--,--.--,0,-0.0,-0.0,-0.4,-0.0,-0.0,0.0,--.--,--.--,--.--,--.--,--.--,--.--,--.--,--.--,--.--,--.--,--.--,--.--,98.96,47.52,--.--,0,0,0.0,0.0,0.0,0,0,0,--.--,--.--,--.--
2022-12-06 11:35:49.779,-1.3,-0.5,54,0.0,0.0,0.0,0.0,0.0,0.000,0.0,0.4,0.1,0.000,0.111,0.000,0.0,00:00:01,0.0,0,--.--,--.--,--.--,0,0000:00:00,50,0,0,0,40,0,2,--.--,0,0,0,--.--,0.55,19,--.--,99,--.--,--:--:--,0,--.--,11:35:48,12/6/2022,--.--,--.--,--.--,--.--,--.--,--.--,--.--,--.--,--.--,--.--,--.--,--.--,0,0.000,0.000,0.000,0.000,0.000,0.000,0.000,0.000,0.000,0.000,0.000,0.000,false,false,false,false,false,false,false,false,false,false,false,false,--.--,--.--,--.--,--.--,--.--,--.--,--.--,--.--,47.6076087,-122.3442916,10TET 49282 72897,1.0,1.0,0.0,3,10,--.--,--.--,,--.--,--.--,--.--,0,0,--.--,--.--,0,-0.0,-0.0,-0.4,-0.0,0.0,0.0,--.--,--.--,--.--,--.--,--.--,--.--,--.--,--.--,--.--,--.--,--.--,--.--,98.94,47.52,--.--,0,0,0.0,0.0,0.0,0,0,0,--.--,--.--,--.--
2022-12-06 11:35:50.780,-1.3,-0.5,55,0.0,0.0,0.0,0.0,0.0,0.000,0.0,0.4,0.1,0.000,0.114,0.000,0.0,00:00:01,0.0,0,--.--,--.--,--.--,0,0000:00:00,50,0,0,0,40,0,2,--.--,0,0,0,--.--,0.55,19,--.--,99,--.--,--:--:--,0,--.--,11:35:49,12/6/2022,--.--,--.--,--.--,--.--,--.--,--.--,--.--,--.--,--.--,--.--,--.--,--.--,0,0.000,0.000,0.000,0.000,0.000,0.000,0.000,0.000,0.000,0.000,0.000,0.000,false,false,false,false,false,false,false,false,false,false,false,false,--.--,--.--,--.--,--.--,--.--,--.--,--.--,--.--,47.6076087,-122.3442916,10TET 49282 72897,1.0,1.0,0.0,3,10,--.--,--.--,,--.--,--.--,--.--,0,0,--.--,--.--,0,-0.0,-0.0,-0.4,-0.0,0.0,-0.0,--.--,--.--,--.--,--.--,--.--,--.--,--.--,--.--,--.--,--.--,--.--,--.--,98.96,47.52,--.--,0,0,0.0,0.0,0.0,0,0,0,--.--,--.--,--.--
2022-12-06 11:35:51.779,-1.3,-0.5,55,0.0,0.0,0.0,0.0,0.0,0.000,0.0,0.4,0.1,0.000,0.117,0.000,0.0,00:00:01,0.0,0,--.--,--.--,--.--,0,0000:00:00,50,0,0,0,40,0,2,--.--,0,0,0,--.--,0.54,19,--.--,99,--.--,--:--:--,0,--.--,11:35:50,12/6/2022,--.--,--.--,--.--,--.--,--.--,--.--,--.--,--.--,--.--,--.--,--.--,--.--,0,0.000,0.000,0.000,0.000,0.000,0.000,0.000,0.000,0.000,0.000,0.000,0.000,false,false,false,false,false,false,false,false,false,false,false,false,--.--,--.--,--.--,--.--,--.--,--.--,--.--,--.--,47.6076087,-122.3442916,10TET 49282 72897,1.0,1.0,0.0,3,10,--.--,--.--,,--.--,--.--,--.--,0,0,--.--,--.--,0,-0.0,-0.0,-0.4,-0.0,0.0,-0.0,--.--,--.--,--.--,--.--,--.--,--.--,--.--,--.--,--.--,--.--,--.--,--.--,98.94,47.52,--.--,0,0,0.0,0.0,0.0,0,0,0,--.--,--.--,--.--
2022-12-06 11:35:52.779,-1.3,-0.5,55,0.0,0.0,0.0,0.0,0.0,0.000,0.0,0.4,0.1,0.000,0.114,0.000,0.0,00:00:01,0.0,0,--.--,--.--,--.--,0,0000:00:00,50,0,0,0,40,0,2,--.--,0,0,0,--.--,0.55,19,--.--,99,--.--,--:--:--,0,--.--,11:35:51,12/6/2022,--.--,--.--,--.--,--.--,--.--,--.--,--.--,--.--,--.--,--.--,--.--,--.--,0,0.000,0.000,0.000,0.000,0.000,0.000,0.000,0.000,0.000,0.000,0.000,0.000,false,false,false,false,false,false,false,false,false,false,false,false,--.--,--.--,--.--,--.--,--.--,--.--,--.--,--.--,47.6076087,-122.3442916,10TET 49282 72897,1.0,1.0,0.0,3,10,--.--,--.--,,--.--,--.--,--.--,0,0,--.--,--.--,0,-0.0,-0.0,-0.4,-0.0,0.0,0.0,--.--,--.--,--.--,--.--,--.--,--.--,--.--,--.--,--.--,--.--,--.--,--.--,98.94,47.52,--.--,0,0,0.0,0.0,0.0,0,0,0,--.--,--.--,--.--
2022-12-06 11:35:53.783,-1.3,-0.5,55,0.0,0.0,0.0,0.0,0.0,0.000,0.0,0.4,0.1,0.000,0.115,0.000,0.0,00:00:01,0.0,0,--.--,--.--,--.--,0,0000:00:00,50,0,0,0,40,0,2,--.--,0,0,0,--.--,0.52,19,--.--,99,--.--,--:--:--,0,--.--,11:35:52,12/6/2022,--.--,--.--,--.--,--.--,--.--,--.--,--.--,--.--,--.--,--.--,--.--,--.--,0,0.000,0.000,0.000,0.000,0.000,0.000,0.000,0.000,0.000,0.000,0.000,0.000,false,false,false,false,false,false,false,false,false,false,false,false,--.--,--.--,--.--,--.--,--.--,--.--,--.--,--.--,47.6076087,-122.3442916,10TET 49282 72897,1.0,1.0,0.0,3,10,--.--,--.--,,--.--,--.--,--.--,0,0,--.--,--.--,0,-0.0,-0.0,-0.4,-0.0,0.0,-0.0,--.--,--.--,--.--,--.--,--.--,--.--,--.--,--.--,--.--,--.--,--.--,--.--,98.96,47.52,--.--,0,0,0.0,0.0,0.0,0,0,0,--.--,--.--,--.--
2022-12-06 11:35:54.780,-1.3,-0.5,55,0.0,0.0,0.0,0.0,0.0,0.000,0.0,0.4,0.1,0.000,0.115,0.000,0.0,00:00:01,0.0,0,--.--,--.--,--.--,0,0000:00:00,50,0,0,0,40,0,2,--.--,0,0,0,--.--,0.48,19,--.--,99,--.--,--:--:--,0,--.--,11:35:53,12/6/2022,--.--,--.--,--.--,--.--,--.--,--.--,--.--,--.--,--.--,--.--,--.--,--.--,0,0.000,0.000,0.000,0.000,0.000,0.000,0.000,0.000,0.000,0.000,0.000,0.000,false,false,false,false,false,false,false,false,false,false,false,false,--.--,--.--,--.--,--.--,--.--,--.--,--.--,--.--,47.6076087,-122.3442916,10TET 49282 72897,1.0,1.0,0.0,3,10,--.--,--.--,,--.--,--.--,--.--,0,0,--.--,--.--,0,-0.0,-0.0,-0.4,-0.0,0.0,0.0,--.--,--.--,--.--,--.--,--.--,--.--,--.--,--.--,--.--,--.--,--.--,--.--,98.94,47.52,--.--,0,0,0.0,0.0,0.0,0,0,0,--.--,--.--,--.--
2022-12-06 11:35:55.790,-1.3,-0.5,55,0.0,0.0,0.0,0.0,0.0,0.000,0.0,0.4,0.1,0.000,0.113,0.000,0.0,00:00:01,0.0,0,--.--,--.--,--.--,0,0000:00:00,50,0,0,0,40,0,2,--.--,0,0,0,--.--,0.53,20,--.--,99,--.--,--:--:--,0,--.--,11:35:54,12/6/2022,--.--,--.--,--.--,--.--,--.--,--.--,--.--,--.--,--.--,--.--,--.--,--.--,0,0.000,0.000,0.000,0.000,0.000,0.000,0.000,0.000,0.000,0.000,0.000,0.000,false,false,false,false,false,false,false,false,false,false,false,false,--.--,--.--,--.--,--.--,--.--,--.--,--.--,--.--,47.6076087,-122.3442916,10TET 49282 72897,1.0,1.0,0.0,3,10,--.--,--.--,,--.--,--.--,--.--,0,0,--.--,--.--,0,-0.0,-0.0,-0.4,-0.0,0.0,0.0,--.--,--.--,--.--,--.--,--.--,--.--,--.--,--.--,--.--,--.--,--.--,--.--,98.94,47.52,--.--,0,0,0.0,0.0,0.0,0,0,0,--.--,--.--,--.--
2022-12-06 11:35:56.782,-1.3,-0.5,55,0.0,0.0,0.0,0.0,0.0,0.000,0.0,0.4,0.1,0.000,0.114,0.000,0.0,00:00:01,0.0,0,--.--,--.--,--.--,0,0000:00:00,50,0,0,0,40,0,2,--.--,0,0,0,--.--,0.51,20,--.--,99,--.--,--:--:--,0,--.--,11:35:55,12/6/2022,--.--,--.--,--.--,--.--,--.--,--.--,--.--,--.--,--.--,--.--,--.--,--.--,0,0.000,0.000,0.000,0.000,0.000,0.000,0.000,0.000,0.000,0.000,0.000,0.000,false,false,false,false,false,false,false,false,false,false,false,false,--.--,--.--,--.--,--.--,--.--,--.--,--.--,--.--,47.6076087,-122.3442916,10TET 49282 72897,1.0,1.0,0.0,3,10,--.--,--.--,,--.--,--.--,--.--,0,0,--.--,--.--,0,-0.0,-0.0,-0.4,-0.0,0.0,0.0,--.--,--.--,--.--,--.--,--.--,--.--,--.--,--.--,--.--,--.--,--.--,--.--,98.96,47.48,--.--,0,0,0.0,0.0,0.0,0,0,0,--.--,--.--,--.--
2022-12-06 11:35:57.780,-1.3,-0.5,55,0.0,0.0,0.0,0.0,0.0,0.000,0.0,0.4,0.1,0.000,0.115,0.000,0.0,00:00:01,0.0,0,--.--,--.--,--.--,0,0000:00:00,50,0,0,0,40,0,2,--.--,0,0,0,--.--,0.58,20,--.--,99,--.--,--:--:--,0,--.--,11:35:56,12/6/2022,--.--,--.--,--.--,--.--,--.--,--.--,--.--,--.--,--.--,--.--,--.--,--.--,0,0.000,0.000,0.000,0.000,0.000,0.000,0.000,0.000,0.000,0.000,0.000,0.000,false,false,false,false,false,false,false,false,false,false,false,false,--.--,--.--,--.--,--.--,--.--,--.--,--.--,--.--,47.6076087,-122.3442916,10TET 49282 72897,1.0,1.0,0.0,3,10,--.--,--.--,,--.--,--.--,--.--,0,0,--.--,--.--,0,-0.0,-0.0,-0.4,-0.0,0.0,-0.0,--.--,--.--,--.--,--.--,--.--,--.--,--.--,--.--,--.--,--.--,--.--,--.--,98.94,47.52,--.--,0,0,0.0,0.0,0.0,0,0,0,--.--,--.--,--.--
2022-12-06 11:35:58.779,-1.3,-0.5,55,0.0,0.0,0.0,0.0,0.0,0.000,0.0,0.4,0.1,0.000,0.117,0.000,0.0,00:00:01,0.0,0,--.--,--.--,--.--,0,0000:00:00,50,0,0,0,40,0,2,--.--,0,0,0,--.--,0.56,20,--.--,99,--.--,--:--:--,0,--.--,11:35:57,12/6/2022,--.--,--.--,--.--,--.--,--.--,--.--,--.--,--.--,--.--,--.--,--.--,--.--,0,0.000,0.000,0.000,0.000,0.000,0.000,0.000,0.000,0.000,0.000,0.000,0.000,false,false,false,false,false,false,false,false,false,false,false,false,--.--,--.--,--.--,--.--,--.--,--.--,--.--,--.--,47.6076087,-122.3442916,10TET 49282 72897,1.0,1.0,0.0,3,10,--.--,--.--,,--.--,--.--,--.--,0,0,--.--,--.--,0,-0.0,-0.0,-0.4,-0.0,0.0,-0.0,--.--,--.--,--.--,--.--,--.--,--.--,--.--,--.--,--.--,--.--,--.--,--.--,98.94,47.48,--.--,0,0,0.0,0.0,0.0,0,0,0,--.--,--.--,--.--
2022-12-06 11:35:59.781,-1.3,-0.5,55,0.0,0.0,0.0,0.0,0.0,0.000,0.0,0.4,0.1,0.000,0.114,0.000,0.0,00:00:01,0.0,0,--.--,--.--,--.--,0,0000:00:00,50,0,0,0,40,0,2,--.--,0,0,0,--.--,0.54,20,--.--,99,--.--,--:--:--,0,--.--,11:35:58,12/6/2022,--.--,--.--,--.--,--.--,--.--,--.--,--.--,--.--,--.--,--.--,--.--,--.--,0,0.000,0.000,0.000,0.000,0.000,0.000,0.000,0.000,0.000,0.000,0.000,0.000,false,false,false,false,false,false,false,false,false,false,false,false,--.--,--.--,--.--,--.--,--.--,--.--,--.--,--.--,47.6076087,-122.3442916,10TET 49282 72897,1.0,1.0,0.0,3,10,--.--,--.--,,--.--,--.--,--.--,0,0,--.--,--.--,0,-0.0,-0.0,-0.4,-0.0,0.0,-0.0,--.--,--.--,--.--,--.--,--.--,--.--,--.--,--.--,--.--,--.--,--.--,--.--,98.94,47.48,--.--,0,0,0.0,0.0,0.0,0,0,0,--.--,--.--,--.--
2022-12-06 11:36:00.781,-1.3,-0.5,55,0.0,0.0,0.0,0.0,0.0,0.000,0.0,0.4,0.1,0.000,0.114,0.000,0.0,00:00:01,0.0,0,--.--,--.--,--.--,0,0000:00:00,50,0,0,0,40,0,2,--.--,0,0,0,--.--,0.52,20,--.--,99,--.--,--:--:--,0,--.--,11:35:59,12/6/2022,--.--,--.--,--.--,--.--,--.--,--.--,--.--,--.--,--.--,--.--,--.--,--.--,0,0.000,0.000,0.000,0.000,0.000,0.000,0.000,0.000,0.000,0.000,0.000,0.000,false,false,false,false,false,false,false,false,false,false,false,false,--.--,--.--,--.--,--.--,--.--,--.--,--.--,--.--,47.6076087,-122.3442916,10TET 49282 72897,1.0,1.0,0.0,3,10,--.--,--.--,,--.--,--.--,--.--,0,0,--.--,--.--,0,-0.0,-0.0,-0.4,-0.0,0.0,-0.0,--.--,--.--,--.--,--.--,--.--,--.--,--.--,--.--,--.--,--.--,--.--,--.--,98.94,47.48,--.--,0,0,0.0,0.0,0.0,0,0,0,--.--,--.--,--.--
2022-12-06 11:36:01.779,-1.3,-0.5,55,0.0,0.0,0.0,0.0,0.0,0.000,0.0,0.4,0.1,0.000,0.112,0.000,0.0,00:00:01,0.0,0,--.--,--.--,--.--,0,0000:00:00,50,0,0,0,40,0,2,--.--,0,0,0,--.--,0.58,20,--.--,99,--.--,--:--:--,0,--.--,11:36:00,12/6/2022,--.--,--.--,--.--,--.--,--.--,--.--,--.--,--.--,--.--,--.--,--.--,--.--,0,0.000,0.000,0.000,0.000,0.000,0.000,0.000,0.000,0.000,0.000,0.000,0.000,false,false,false,false,false,false,false,false,false,false,false,false,--.--,--.--,--.--,--.--,--.--,--.--,--.--,--.--,47.6076087,-122.3442916,10TET 49282 72897,1.0,1.0,0.0,3,10,--.--,--.--,,--.--,--.--,--.--,0,0,--.--,--.--,0,-0.0,-0.0,-0.4,-0.0,-0.0,0.0,--.--,--.--,--.--,--.--,--.--,--.--,--.--,--.--,--.--,--.--,--.--,--.--,98.94,47.52,--.--,0,0,0.0,0.0,0.0,0,0,0,--.--,--.--,--.--
2022-12-06 11:36:02.784,-1.3,-0.5,56,0.0,0.0,0.0,0.0,0.0,0.000,0.0,0.4,0.1,0.000,0.112,0.000,0.0,00:00:01,0.0,0,--.--,--.--,--.--,0,0000:00:00,50,0,0,0,40,0,2,--.--,0,0,0,--.--,0.55,21,--.--,99,--.--,--:--:--,0,--.--,11:36:01,12/6/2022,--.--,--.--,--.--,--.--,--.--,--.--,--.--,--.--,--.--,--.--,--.--,--.--,0,0.000,0.000,0.000,0.000,0.000,0.000,0.000,0.000,0.000,0.000,0.000,0.000,false,false,false,false,false,false,false,false,false,false,false,false,--.--,--.--,--.--,--.--,--.--,--.--,--.--,--.--,47.6076087,-122.3442916,10TET 49282 72897,1.0,1.0,0.0,3,10,--.--,--.--,,--.--,--.--,--.--,0,0,--.--,--.--,0,-0.0,-0.0,-0.4,-0.0,0.0,0.0,--.--,--.--,--.--,--.--,--.--,--.--,--.--,--.--,--.--,--.--,--.--,--.--,98.94,47.48,--.--,0,0,0.0,0.0,0.0,0,0,0,--.--,--.--,--.--
2022-12-06 11:36:03.780,-1.3,-0.5,56,0.0,0.0,0.0,0.0,0.0,0.000,0.0,0.4,0.1,0.000,0.116,0.000,0.0,00:00:01,0.0,0,--.--,--.--,--.--,0,0000:00:00,50,0,0,0,40,0,2,--.--,0,0,0,--.--,0.53,21,--.--,99,--.--,--:--:--,0,--.--,11:36:02,12/6/2022,--.--,--.--,--.--,--.--,--.--,--.--,--.--,--.--,--.--,--.--,--.--,--.--,0,0.000,0.000,0.000,0.000,0.000,0.000,0.000,0.000,0.000,0.000,0.000,0.000,false,false,false,false,false,false,false,false,false,false,false,false,--.--,--.--,--.--,--.--,--.--,--.--,--.--,--.--,47.6076087,-122.3442916,10TET 49282 72897,1.0,1.0,0.0,3,10,--.--,--.--,,--.--,--.--,--.--,0,0,--.--,--.--,0,-0.0,-0.0,-0.4,0.0,-0.0,-0.0,--.--,--.--,--.--,--.--,--.--,--.--,--.--,--.--,--.--,--.--,--.--,--.--,98.94,47.52,--.--,0,0,0.0,0.0,0.0,0,0,0,--.--,--.--,--.--
2022-12-06 11:36:04.779,-1.3,-0.5,56,0.0,0.0,0.0,0.0,0.0,0.000,0.0,0.4,0.1,0.000,0.115,0.000,0.0,00:00:01,0.0,0,--.--,--.--,--.--,0,0000:00:00,50,0,0,0,40,0,2,--.--,0,0,0,--.--,0.54,21,--.--,99,--.--,--:--:--,0,--.--,11:36:03,12/6/2022,--.--,--.--,--.--,--.--,--.--,--.--,--.--,--.--,--.--,--.--,--.--,--.--,0,0.000,0.000,0.000,0.000,0.000,0.000,0.000,0.000,0.000,0.000,0.000,0.000,false,false,false,false,false,false,false,false,false,false,false,false,--.--,--.--,--.--,--.--,--.--,--.--,--.--,--.--,47.6076087,-122.3442916,10TET 49282 72897,1.0,1.0,0.0,3,10,--.--,--.--,,--.--,--.--,--.--,0,0,--.--,--.--,0,-0.0,-0.0,-0.4,0.0,-0.0,-0.0,--.--,--.--,--.--,--.--,--.--,--.--,--.--,--.--,--.--,--.--,--.--,--.--,98.94,47.48,--.--,0,0,0.0,0.0,0.0,0,0,0,--.--,--.--,--.--
2022-12-06 11:36:05.779,-1.3,-0.5,56,0.0,0.0,0.0,0.0,0.0,0.000,0.0,0.4,0.1,0.000,0.116,0.000,0.0,00:00:01,0.0,0,--.--,--.--,--.--,0,0000:00:00,50,0,0,0,40,0,2,--.--,0,0,0,--.--,0.54,21,--.--,99,--.--,--:--:--,0,--.--,11:36:04,12/6/2022,--.--,--.--,--.--,--.--,--.--,--.--,--.--,--.--,--.--,--.--,--.--,--.--,0,0.000,0.000,0.000,0.000,0.000,0.000,0.000,0.000,0.000,0.000,0.000,0.000,false,false,false,false,false,false,false,false,false,false,false,false,--.--,--.--,--.--,--.--,--.--,--.--,--.--,--.--,47.6076087,-122.3442916,10TET 49282 72897,1.0,1.0,0.0,3,10,--.--,--.--,,--.--,--.--,--.--,0,0,--.--,--.--,0,-0.0,-0.0,-0.4,0.0,-0.0,-0.0,--.--,--.--,--.--,--.--,--.--,--.--,--.--,--.--,--.--,--.--,--.--,--.--,98.94,47.48,--.--,0,0,0.0,0.0,0.0,0,0,0,--.--,--.--,--.--
2022-12-06 11:36:06.781,-1.3,-0.5,56,0.0,0.0,0.0,0.0,0.0,0.000,0.0,0.4,0.1,0.000,0.115,0.000,0.0,00:00:01,0.0,0,--.--,--.--,--.--,0,0000:00:00,50,0,0,0,40,0,2,--.--,0,0,0,--.--,0.56,21,--.--,99,--.--,--:--:--,0,--.--,11:36:05,12/6/2022,--.--,--.--,--.--,--.--,--.--,--.--,--.--,--.--,--.--,--.--,--.--,--.--,0,0.000,0.000,0.000,0.000,0.000,0.000,0.000,0.000,0.000,0.000,0.000,0.000,false,false,false,false,false,false,false,false,false,false,false,false,--.--,--.--,--.--,--.--,--.--,--.--,--.--,--.--,47.6076087,-122.3442916,10TET 49282 72897,1.0,1.0,0.0,3,10,--.--,--.--,,--.--,--.--,--.--,0,0,--.--,--.--,0,-0.0,-0.0,-0.4,-0.0,-0.0,0.0,--.--,--.--,--.--,--.--,--.--,--.--,--.--,--.--,--.--,--.--,--.--,--.--,98.94,47.48,--.--,0,0,0.0,0.0,0.0,0,0,0,--.--,--.--,--.--
2022-12-06 11:36:07.781,-1.3,-0.5,56,0.0,0.0,0.0,0.0,0.0,0.000,0.0,0.4,0.1,0.000,0.114,0.000,0.0,00:00:01,0.0,0,--.--,--.--,--.--,0,0000:00:00,50,0,0,0,40,0,2,--.--,0,0,0,--.--,0.58,21,--.--,99,--.--,--:--:--,0,--.--,11:36:06,12/6/2022,--.--,--.--,--.--,--.--,--.--,--.--,--.--,--.--,--.--,--.--,--.--,--.--,0,0.000,0.000,0.000,0.000,0.000,0.000,0.000,0.000,0.000,0.000,0.000,0.000,false,false,false,false,false,false,false,false,false,false,false,false,--.--,--.--,--.--,--.--,--.--,--.--,--.--,--.--,47.6076087,-122.3442916,10TET 49282 72897,1.0,1.0,0.0,3,10,--.--,--.--,,--.--,--.--,--.--,0,0,--.--,--.--,0,-0.0,-0.0,-0.4,-0.0,0.0,0.0,--.--,--.--,--.--,--.--,--.--,--.--,--.--,--.--,--.--,--.--,--.--,--.--,98.94,47.48,--.--,0,0,0.0,0.0,0.0,0,0,0,--.--,--.--,--.--
2022-12-06 11:36:08.780,-1.3,-0.5,56,0.0,0.0,0.0,0.0,0.0,0.000,0.0,0.4,0.1,0.000,0.114,0.000,0.0,00:00:01,0.0,0,--.--,--.--,--.--,0,0000:00:00,50,0,0,0,40,0,2,--.--,0,0,0,--.--,0.53,22,--.--,99,--.--,--:--:--,0,--.--,11:36:07,12/6/2022,--.--,--.--,--.--,--.--,--.--,--.--,--.--,--.--,--.--,--.--,--.--,--.--,0,0.000,0.000,0.000,0.000,0.000,0.000,0.000,0.000,0.000,0.000,0.000,0.000,false,false,false,false,false,false,false,false,false,false,false,false,--.--,--.--,--.--,--.--,--.--,--.--,--.--,--.--,47.6076087,-122.3442916,10TET 49282 72897,1.0,1.0,0.0,3,10,--.--,--.--,,--.--,--.--,--.--,0,0,--.--,--.--,0,-0.0,-0.0,-0.4,-0.0,0.0,0.0,--.--,--.--,--.--,--.--,--.--,--.--,--.--,--.--,--.--,--.--,--.--,--.--,98.94,47.48,--.--,0,0,0.0,0.0,0.0,0,0,0,--.--,--.--,--.--
2022-12-06 11:36:09.780,-1.3,-0.5,56,0.0,0.0,0.0,0.0,0.0,0.000,0.0,0.4,0.1,0.000,0.116,0.000,0.0,00:00:01,0.0,0,--.--,--.--,--.--,0,0000:00:00,50,0,0,0,40,0,2,--.--,0,0,0,--.--,0.56,22,--.--,99,--.--,--:--:--,0,--.--,11:36:08,12/6/2022,--.--,--.--,--.--,--.--,--.--,--.--,--.--,--.--,--.--,--.--,--.--,--.--,0,0.000,0.000,0.000,0.000,0.000,0.000,0.000,0.000,0.000,0.000,0.000,0.000,false,false,false,false,false,false,false,false,false,false,false,false,--.--,--.--,--.--,--.--,--.--,--.--,--.--,--.--,47.6076087,-122.3442916,10TET 49282 72897,1.0,1.0,0.0,3,10,--.--,--.--,,--.--,--.--,--.--,0,0,--.--,--.--,0,-0.0,-0.0,-0.4,-0.0,0.0,-0.0,--.--,--.--,--.--,--.--,--.--,--.--,--.--,--.--,--.--,--.--,--.--,--.--,98.94,47.48,--.--,0,0,0.0,0.0,0.0,0,0,0,--.--,--.--,--.--
2022-12-06 11:36:10.780,-1.3,-0.5,56,0.0,0.0,0.0,0.0,0.0,0.000,0.0,0.4,0.1,0.000,0.116,0.000,0.0,00:00:01,0.0,0,--.--,--.--,--.--,0,0000:00:00,50,0,0,0,40,0,2,--.--,0,0,0,--.--,0.54,22,--.--,99,--.--,--:--:--,0,--.--,11:36:09,12/6/2022,--.--,--.--,--.--,--.--,--.--,--.--,--.--,--.--,--.--,--.--,--.--,--.--,0,0.000,0.000,0.000,0.000,0.000,0.000,0.000,0.000,0.000,0.000,0.000,0.000,false,false,false,false,false,false,false,false,false,false,false,false,--.--,--.--,--.--,--.--,--.--,--.--,--.--,--.--,47.6076087,-122.3442916,10TET 49282 72897,1.0,1.0,0.0,3,10,--.--,--.--,,--.--,--.--,--.--,0,0,--.--,--.--,0,-0.0,-0.0,-0.4,-0.0,0.0,-0.0,--.--,--.--,--.--,--.--,--.--,--.--,--.--,--.--,--.--,--.--,--.--,--.--,98.94,47.48,--.--,0,0,0.0,0.0,0.0,0,0,0,--.--,--.--,--.--
2022-12-06 11:36:11.782,-1.3,-0.5,56,0.0,0.0,0.0,0.0,0.0,0.000,0.0,0.4,0.1,0.000,0.113,0.000,0.0,00:00:01,0.0,0,--.--,--.--,--.--,0,0000:00:00,50,0,0,0,40,0,2,--.--,0,0,0,--.--,0.53,22,--.--,99,--.--,--:--:--,0,--.--,11:36:10,12/6/2022,--.--,--.--,--.--,--.--,--.--,--.--,--.--,--.--,--.--,--.--,--.--,--.--,0,0.000,0.000,0.000,0.000,0.000,0.000,0.000,0.000,0.000,0.000,0.000,0.000,false,false,false,false,false,false,false,false,false,false,false,false,--.--,--.--,--.--,--.--,--.--,--.--,--.--,--.--,47.6076087,-122.3442916,10TET 49282 72897,1.0,1.0,0.0,3,10,--.--,--.--,,--.--,--.--,--.--,0,0,--.--,--.--,0,-0.0,-0.0,-0.4,-0.0,0.0,0.0,--.--,--.--,--.--,--.--,--.--,--.--,--.--,--.--,--.--,--.--,--.--,--.--,98.94,47.48,--.--,0,0,0.0,0.0,0.0,0,0,0,--.--,--.--,--.--
2022-12-06 11:36:12.780,-1.3,-0.5,56,0.0,0.0,0.0,0.0,0.0,0.000,0.0,0.4,0.1,0.000,0.113,0.000,0.0,00:00:01,0.0,0,--.--,--.--,--.--,0,0000:00:00,50,0,0,0,40,0,2,--.--,0,0,0,--.--,0.51,22,--.--,99,--.--,--:--:--,0,--.--,11:36:11,12/6/2022,--.--,--.--,--.--,--.--,--.--,--.--,--.--,--.--,--.--,--.--,--.--,--.--,0,0.000,0.000,0.000,0.000,0.000,0.000,0.000,0.000,0.000,0.000,0.000,0.000,false,false,false,false,false,false,false,false,false,false,false,false,--.--,--.--,--.--,--.--,--.--,--.--,--.--,--.--,47.6076087,-122.3442916,10TET 49282 72897,1.0,1.0,0.0,3,10,--.--,--.--,,--.--,--.--,--.--,0,0,--.--,--.--,0,-0.0,-0.0,-0.4,-0.0,-0.0,-0.0,--.--,--.--,--.--,--.--,--.--,--.--,--.--,--.--,--.--,--.--,--.--,--.--,98.94,47.52,--.--,0,0,0.0,0.0,0.0,0,0,0,--.--,--.--,--.--
2022-12-06 11:36:13.778,-1.3,-0.5,56,0.0,0.0,0.0,0.0,0.0,0.000,0.0,0.4,0.1,0.000,0.117,0.000,0.0,00:00:01,0.0,0,--.--,--.--,--.--,0,0000:00:00,50,0,0,0,40,0,2,--.--,0,0,0,--.--,0.54,22,--.--,99,--.--,--:--:--,0,--.--,11:36:12,12/6/2022,--.--,--.--,--.--,--.--,--.--,--.--,--.--,--.--,--.--,--.--,--.--,--.--,0,0.000,0.000,0.000,0.000,0.000,0.000,0.000,0.000,0.000,0.000,0.000,0.000,false,false,false,false,false,false,false,false,false,false,false,false,--.--,--.--,--.--,--.--,--.--,--.--,--.--,--.--,47.6076087,-122.3442916,10TET 49282 72897,1.0,1.0,0.0,3,10,--.--,--.--,,--.--,--.--,--.--,0,0,--.--,--.--,0,-0.0,-0.0,-0.4,0.0,-0.0,-0.0,--.--,--.--,--.--,--.--,--.--,--.--,--.--,--.--,--.--,--.--,--.--,--.--,98.94,47.48,--.--,0,0,0.0,0.0,0.0,0,0,0,--.--,--.--,--.--
2022-12-06 11:36:14.784,-1.3,-0.5,56,0.0,0.0,0.0,0.0,0.0,0.000,0.0,0.4,0.1,0.000,0.116,0.000,0.0,00:00:01,0.0,0,--.--,--.--,--.--,0,0000:00:00,50,0,0,0,40,0,2,--.--,0,0,0,--.--,0.37,22,--.--,99,--.--,--:--:--,0,--.--,11:36:13,12/6/2022,--.--,--.--,--.--,--.--,--.--,--.--,--.--,--.--,--.--,--.--,--.--,--.--,0,0.000,0.000,0.000,0.000,0.000,0.000,0.000,0.000,0.000,0.000,0.000,0.000,false,false,false,false,false,false,false,false,false,false,false,false,--.--,--.--,--.--,--.--,--.--,--.--,--.--,--.--,47.6076087,-122.3442916,10TET 49282 72897,1.0,1.0,0.0,3,10,--.--,--.--,,--.--,--.--,--.--,0,0,--.--,--.--,0,-0.0,-0.0,-0.4,-0.0,-0.0,-0.0,--.--,--.--,--.--,--.--,--.--,--.--,--.--,--.--,--.--,--.--,--.--,--.--,98.94,47.52,--.--,0,0,0.0,0.0,0.0,0,0,0,--.--,--.--,--.--
2022-12-06 11:36:15.780,-1.3,-0.5,56,0.0,0.0,0.0,0.0,0.0,0.000,0.0,0.4,0.1,0.000,0.114,0.000,0.0,00:00:01,0.0,0,--.--,--.--,--.--,0,0000:00:00,50,0,0,0,40,0,2,--.--,0,0,0,--.--,0.56,23,--.--,99,--.--,--:--:--,0,--.--,11:36:14,12/6/2022,--.--,--.--,--.--,--.--,--.--,--.--,--.--,--.--,--.--,--.--,--.--,--.--,0,0.000,0.000,0.000,0.000,0.000,0.000,0.000,0.000,0.000,0.000,0.000,0.000,false,false,false,false,false,false,false,false,false,false,false,false,--.--,--.--,--.--,--.--,--.--,--.--,--.--,--.--,47.6076087,-122.3442916,10TET 49282 72897,1.0,1.0,0.0,3,10,--.--,--.--,,--.--,--.--,--.--,0,0,--.--,--.--,0,-0.0,-0.0,-0.4,0.0,-0.0,0.0,--.--,--.--,--.--,--.--,--.--,--.--,--.--,--.--,--.--,--.--,--.--,--.--,98.94,47.48,--.--,0,0,0.0,0.0,0.0,0,0,0,--.--,--.--,--.--
2022-12-06 11:36:16.780,-1.3,-0.5,56,0.0,0.0,0.0,0.0,0.0,0.000,0.0,0.4,0.1,0.000,0.114,0.000,0.0,00:00:01,0.0,0,--.--,--.--,--.--,0,0000:00:00,50,0,0,0,40,0,2,--.--,0,0,0,--.--,0.58,23,--.--,99,--.--,--:--:--,0,--.--,11:36:15,12/6/2022,--.--,--.--,--.--,--.--,--.--,--.--,--.--,--.--,--.--,--.--,--.--,--.--,0,0.000,0.000,0.000,0.000,0.000,0.000,0.000,0.000,0.000,0.000,0.000,0.000,false,false,false,false,false,false,false,false,false,false,false,false,--.--,--.--,--.--,--.--,--.--,--.--,--.--,--.--,47.6076087,-122.3442916,10TET 49282 72897,1.0,1.0,0.0,3,10,--.--,--.--,,--.--,--.--,--.--,0,0,--.--,--.--,0,0.0,-0.0,-0.4,0.0,-0.0,-0.0,--.--,--.--,--.--,--.--,--.--,--.--,--.--,--.--,--.--,--.--,--.--,--.--,98.94,47.48,--.--,0,0,0.0,0.0,0.0,0,0,0,--.--,--.--,--.--
2022-12-06 11:36:17.779,-1.3,-0.5,56,0.0,0.0,0.0,0.0,0.0,0.000,0.0,0.4,0.1,0.000,0.112,0.000,0.0,00:00:01,0.0,0,--.--,--.--,--.--,0,0000:00:00,50,0,0,0,40,0,2,--.--,0,0,0,--.--,0.43,23,--.--,99,--.--,--:--:--,0,--.--,11:36:16,12/6/2022,--.--,--.--,--.--,--.--,--.--,--.--,--.--,--.--,--.--,--.--,--.--,--.--,0,0.000,0.000,0.000,0.000,0.000,0.000,0.000,0.000,0.000,0.000,0.000,0.000,false,false,false,false,false,false,false,false,false,false,false,false,--.--,--.--,--.--,--.--,--.--,--.--,--.--,--.--,47.6076087,-122.3442916,10TET 49282 72897,1.0,1.0,0.0,3,10,--.--,--.--,,--.--,--.--,--.--,0,0,--.--,--.--,0,0.0,-0.0,-0.4,0.0,-0.0,0.0,--.--,--.--,--.--,--.--,--.--,--.--,--.--,--.--,--.--,--.--,--.--,--.--,98.94,47.48,--.--,0,0,0.0,0.0,0.0,0,0,0,--.--,--.--,--.--
2022-12-06 11:36:18.780,-1.3,-0.5,56,0.0,0.0,0.0,0.0,0.0,0.000,0.0,0.4,0.1,0.000,0.116,0.000,0.0,00:00:01,0.0,0,--.--,--.--,--.--,0,0000:00:00,50,0,0,0,40,0,2,--.--,0,0,0,--.--,0.57,23,--.--,99,--.--,--:--:--,0,--.--,11:36:17,12/6/2022,--.--,--.--,--.--,--.--,--.--,--.--,--.--,--.--,--.--,--.--,--.--,--.--,0,0.000,0.000,0.000,0.000,0.000,0.000,0.000,0.000,0.000,0.000,0.000,0.000,false,false,false,false,false,false,false,false,false,false,false,false,--.--,--.--,--.--,--.--,--.--,--.--,--.--,--.--,47.6076087,-122.3442916,10TET 49282 72897,1.0,1.0,0.0,3,10,--.--,--.--,,--.--,--.--,--.--,0,0,--.--,--.--,0,0.0,-0.0,-0.4,0.0,-0.0,-0.0,--.--,--.--,--.--,--.--,--.--,--.--,--.--,--.--,--.--,--.--,--.--,--.--,98.94,47.48,--.--,0,0,0.0,0.0,0.0,0,0,0,--.--,--.--,--.--
2022-12-06 11:36:19.779,-1.3,-0.5,56,0.0,0.0,0.0,0.0,0.0,0.000,0.0,0.4,0.1,0.000,0.116,0.000,0.0,00:00:01,0.0,0,--.--,--.--,--.--,0,0000:00:00,50,0,0,0,40,0,2,--.--,0,0,0,--.--,0.54,23,--.--,99,--.--,--:--:--,0,--.--,11:36:18,12/6/2022,--.--,--.--,--.--,--.--,--.--,--.--,--.--,--.--,--.--,--.--,--.--,--.--,0,0.000,0.000,0.000,0.000,0.000,0.000,0.000,0.000,0.000,0.000,0.000,0.000,false,false,false,false,false,false,false,false,false,false,false,false,--.--,--.--,--.--,--.--,--.--,--.--,--.--,--.--,47.6076087,-122.3442916,10TET 49282 72897,1.0,1.0,0.0,3,10,--.--,--.--,,--.--,--.--,--.--,0,0,--.--,--.--,0,0.0,-0.0,-0.4,-0.0,-0.0,-0.0,--.--,--.--,--.--,--.--,--.--,--.--,--.--,--.--,--.--,--.--,--.--,--.--,98.94,47.48,--.--,0,0,0.0,0.0,0.0,0,0,0,--.--,--.--,--.--
2022-12-06 11:36:20.780,-1.3,-0.5,56,0.0,0.0,0.0,0.0,0.0,0.000,0.0,0.4,0.1,0.000,0.115,0.000,0.0,00:00:01,0.0,0,--.--,--.--,--.--,0,0000:00:00,50,0,0,0,40,0,2,--.--,0,0,0,--.--,0.55,23,--.--,99,--.--,--:--:--,0,--.--,11:36:19,12/6/2022,--.--,--.--,--.--,--.--,--.--,--.--,--.--,--.--,--.--,--.--,--.--,--.--,0,0.000,0.000,0.000,0.000,0.000,0.000,0.000,0.000,0.000,0.000,0.000,0.000,false,false,false,false,false,false,false,false,false,false,false,false,--.--,--.--,--.--,--.--,--.--,--.--,--.--,--.--,47.6076087,-122.3442916,10TET 49282 72897,1.0,1.0,0.0,3,10,--.--,--.--,,--.--,--.--,--.--,0,0,--.--,--.--,0,-0.0,-0.0,-0.4,-0.0,-0.0,-0.0,--.--,--.--,--.--,--.--,--.--,--.--,--.--,--.--,--.--,--.--,--.--,--.--,98.94,47.48,--.--,0,0,0.0,0.0,0.0,0,0,0,--.--,--.--,--.--
